[
  {"owner_id":"OWNER_ID","name":"AVBOB Funeral Parlour - Stellenbosch","slug":"avbob-stellenbosch","description":"AVBOB funeral and mortuary services in Stellenbosch Central.","address":"Cnr Borcherd & Bird Street, Stellenbosch Central, Stellenbosch, 7599","city_id":"a1000000-0000-0000-0000-000000000009","phone":"+27218873136","email":"stellenbosch@funeral.avbob.co.za","availability":"available","price_range":"mid-range","is_active":true,"is_approved":true,"latitude":-33.9346,"longitude":18.8602},
  {"owner_id":"OWNER_ID","name":"AVBOB Funeral Parlour - Paarl","slug":"avbob-paarl","description":"AVBOB funeral and mortuary services in Paarl.","address":"54 Breda Street, Esterville, Paarl, 7646","city_id":"a1000000-0000-0000-0000-000000000008","phone":"+27218721591","email":"paarl@funeral.avbob.co.za","availability":"available","price_range":"mid-range","is_active":true,"is_approved":true,"latitude":-33.7273,"longitude":18.9706},
  {"owner_id":"OWNER_ID","name":"AVBOB Funeral Parlour - Worcester","slug":"avbob-worcester","description":"AVBOB funeral and mortuary services in Worcester.","address":"58 Russell Street, Central, Worcester, 6850","city_id":"a1000000-0000-0000-0000-000000000010","phone":"+27233422343","email":"worcester@funeral.avbob.co.za","availability":"available","price_range":"mid-range","is_active":true,"is_approved":true,"latitude":-33.6463,"longitude":19.4438},
  {"owner_id":"OWNER_ID","name":"El Shaddai Funeral Services","slug":"el-shaddai-funeral-services","description":"Affordable funeral and mortuary services in Worcester.","address":"68 Leipoldt Avenue, Esselenpark, Worcester, 6850","city_id":"a1000000-0000-0000-0000-000000000010","phone":"+27233424850","email":"info@elshaddaifunerals.co.za","availability":"available","price_range":"budget","is_active":true,"is_approved":true,"latitude":-33.65,"longitude":19.44},
  {"owner_id":"OWNER_ID","name":"George Funeral Home","slug":"george-funeral-home","description":"Established mortuary and funeral services in George Central.","address":"5 Memoriam Street, George Central, George, 6529","city_id":"a1000000-0000-0000-0000-000000000003","phone":"+27448732044","availability":"available","price_range":"mid-range","is_active":true,"is_approved":true,"latitude":-33.963,"longitude":22.462},
  {"owner_id":"OWNER_ID","name":"AVBOB Funeral Parlour - George","slug":"avbob-george","description":"AVBOB funeral and mortuary services in George.","address":"9 CJ Langenhoven Road, George Central, George, 6529","city_id":"a1000000-0000-0000-0000-000000000003","phone":"+27448733100","email":"georgediens@assurance.avbob.co.za","availability":"available","price_range":"mid-range","is_active":true,"is_approved":true,"latitude":-33.964,"longitude":22.461},
  {"owner_id":"OWNER_ID","name":"Doves Funeral Services - George","slug":"doves-george","description":"Premium funeral services by Doves in George.","address":"12 CJ Langenhoven Road, George, 6530","city_id":"a1000000-0000-0000-0000-000000000003","phone":"+27448746970","availability":"limited","price_range":"premium","is_active":true,"is_approved":true,"latitude":-33.964,"longitude":22.4605},
  {"owner_id":"OWNER_ID","name":"Green Pastures Funeral Home","slug":"green-pastures-funeral-home","description":"Compassionate funeral and mortuary services in Knysna. 24/7 emergency line.","address":"7 Market Street, Knysna Central, Knysna, 6571","city_id":"a1000000-0000-0000-0000-000000000005","phone":"+27440230106","whatsapp":"+27798144845","email":"greenpastures.knysna@outlook.com","availability":"available","price_range":"mid-range","is_active":true,"is_approved":true,"latitude":-34.0356,"longitude":23.0488},
  {"owner_id":"OWNER_ID","name":"Perks H.S. and Sons","slug":"perks-hs-and-sons","description":"Long-established funeral services in Knysna CBD.","address":"15 Rawson Street, Knysna CBD, Knysna, 6571","city_id":"a1000000-0000-0000-0000-000000000005","phone":"+27443821271","availability":"available","price_range":"mid-range","is_active":true,"is_approved":true,"latitude":-34.036,"longitude":23.049},
  {"owner_id":"OWNER_ID","name":"Mossel Bay Funeral Services","slug":"mossel-bay-funeral-services","description":"Full mortuary and funeral services in Mossel Bay. 24/7 emergency line.","address":"102 Montagu Street, Mossel Bay, 6500","city_id":"a1000000-0000-0000-0000-000000000007","phone":"+27446903314","email":"admin@mbbd.co.za","availability":"available","price_range":"mid-range","is_active":true,"is_approved":true,"latitude":-34.183,"longitude":22.146},
  {"owner_id":"OWNER_ID","name":"AVBOB Funeral Parlour - Mossel Bay","slug":"avbob-mossel-bay","description":"AVBOB funeral and mortuary services in Mossel Bay.","address":"98 Montagu Street, Mossel Bay, 6506","city_id":"a1000000-0000-0000-0000-000000000007","phone":"+27446912431","email":"mosselbaai@funeral.avbob.co.za","availability":"available","price_range":"mid-range","is_active":true,"is_approved":true,"latitude":-34.1828,"longitude":22.1455},
  {"owner_id":"OWNER_ID","name":"Sonja Smith Elite Funeral Group - Mossel Bay","slug":"sonja-smith-elite-mossel-bay","description":"Premium funeral services by Sonja Smith in Mossel Bay.","address":"75 Bland Street, Mossel Bay, 6500","city_id":"a1000000-0000-0000-0000-000000000007","phone":"+27441100021","whatsapp":"+27647506127","availability":"available","price_range":"premium","is_active":true,"is_approved":true,"latitude":-34.1835,"longitude":22.145},
  {"owner_id":"OWNER_ID","name":"Nashca Funerals","slug":"nashca-funerals-hermanus","description":"Compassionate funeral and mortuary services in Hermanus. 24/7 emergency line.","address":"64 Dirkie Uys Street, Sandbaai, Hermanus, 7200","city_id":"a1000000-0000-0000-0000-000000000004","phone":"+27283161659","whatsapp":"+27826544463","availability":"available","price_range":"mid-range","is_active":true,"is_approved":true,"latitude":-34.428,"longitude":19.235},
  {"owner_id":"OWNER_ID","name":"AVBOB Funeral Parlour - Hermanus","slug":"avbob-hermanus","description":"AVBOB funeral and mortuary services in Hermanus.","address":"5 Royal Street, Hermanus, 7200","city_id":"a1000000-0000-0000-0000-000000000004","phone":"+27283121156","email":"hermanus@funeral.avbob.co.za","availability":"available","price_range":"mid-range","is_active":true,"is_approved":true,"latitude":-34.418,"longitude":19.242},
  {"owner_id":"OWNER_ID","name":"Swartland Funerals","slug":"swartland-funerals","description":"Local funeral and mortuary services in Malmesbury.","address":"1 Acasia Avenue, Malmesbury, 7300","city_id":"a1000000-0000-0000-0000-000000000006","phone":"+27224864735","whatsapp":"+27725406785","availability":"available","price_range":"budget","is_active":true,"is_approved":true,"latitude":-33.4612,"longitude":18.728},
  {"owner_id":"OWNER_ID","name":"AVBOB Funeral Parlour - Beaufort West","slug":"avbob-beaufort-west","description":"AVBOB funeral and mortuary services in Beaufort West.","address":"123 Duncan Street, Beaufort West, 6970","city_id":"a1000000-0000-0000-0000-000000000001","phone":"+27234142216","email":"beaufortwes@funeral.avbob.co.za","availability":"available","price_range":"budget","is_active":true,"is_approved":true,"latitude":-32.3534,"longitude":22.5831}
]
